NOME,LATITUDE,LONGITUDE
Parque Barigui,-25.4227643,-49.2982402
Praça Himeji,-25.417052,-49.284218
Memorial Ucraniano,-25.4080748,-49.307594
Passeio Público,-25.4225115,-49.2692025
Museu Egípcio e Rosacruz Tutankhamon,-25.4185763,-49.2686276
Museu Oscar Niemeyer,-25.4304207,-49.3135014
Bosque Alemão,-25.4211749,-49.3103135
Bosque Santa Paula,-25.4405695,-49.3106117
Parque Vista Alegre,-25.4106347,-49.3132573
Parque Bacacheri - Boa Vista - PR,-25.3926211,-49.2464161